{
	"message": "get all shop or group was successfully",
	"payload": [
		{
			"name": "ชื่อทดสอบ 1",
			"address": "ทดสอบ : ร้านผ้าคราม ABC",
			"lat": 17.18671673105972,
			"lng": 104.18281979262882,
			"image": "https://picsum.photos/id/237/200/300"
		},
		{
			"name": "ชื่อทดสอบ 2",
			"address": "ที่อยู่ร้าน : ร้านผ้าคราม ABC",
			"lat": 17.191058760990806,
			"lng": 104.0894708420397,
			"image": "https://picsum.photos/id/870/200/300?grayscale&blur=2?grayscale"
		},
		{
			"name": "ชื่อทดสอบ 3",
			"address": "ที่อยู่ร้าน : ร้านผ้าคราม ABC",
			"lat": 17.190634027635916,
			"lng": 104.09040683236034,
			"image": "https://picsum.photos/id/870/200/300?grayscale&blur=2/?blur"
		},
		{
			"name": "ชื่อทดสอบ 4",
			"address": "ที่อยู่ร้าน : ร้านผ้าคราม ABC",
			"lat": 17.190970159860075,
			"lng": 104.08848902422882,
			"image": "https://picsum.photos/id/870/200/300?grayscale&blur=2"
		},
		{
			"name": "ชื่อทดสอบ 5",
			"address": "ที่อยู่ร้าน : ร้านผ้าคราม ABC",
			"lat": 17.189400286942945,
			"lng": 104.09174171837972,
			"image": "https://picsum.photos/id/870/200/300?grayscale&blur=2"
		},
		{
			"name": "ชื่อทดสอบ 6",
			"address": "ที่อยู่ร้าน : ร้านผ้าคราม ABC",
			"lat": 17.188738469975437,
			"lng": 104.09137406371342,
			"image": "https://picsum.photos/id/870/200/300?grayscale&blur=2"
		},
		{
			"name": "ชื่อทดสอบ 7",
			"address": "ที่อยู่ร้าน : ร้านผ้าคราม ABC",
			"lat": 17.189578289590823,
			"lng": 104.09041195449454,
			"image": "https://picsum.photos/id/870/200/300?grayscale&blur=2"
		},
		{
			"name": "ชื่อทดสอบ 1",
			"address": "ที่อยู่ร้าน : ร้านผ้าคราม ABC",
			"lat": 17.15780527924428,
			"lng": 104.14923658053135,
			"image": "https://picsum.photos/id/870/200/300?grayscale&blur=2"
		},
		{
			"name": "ชื่อทดสอบ 1",
			"address": "ที่อยู่ร้าน : ร้านผ้าคราม ABC",
			"lat": 17.136666701006746,
			"lng": 104.10278590101422,
			"image": "https://picsum.photos/id/870/200/300?grayscale&blur=2"
		},
		{
			"name": "ชื่อทดสอบ 1",
			"address": "ที่อยู่ร้าน : ร้านผ้าคราม ABC",
			"lat": 17.14191591985611,
			"lng": 104.1566875681221,
			"image": "https://picsum.photos/id/870/200/300?grayscale&blur=2"
		},
		{
			"name": "ชื่อทดสอบ 1",
			"address": "ที่อยู่ร้าน : ร้านผ้าคราม ABC",
			"lat": 17.15635050708738,
			"lng": 104.06055721065223,
			"image": "https://picsum.photos/id/870/200/300?grayscale&blur=2"
		},
		{
			"name": "ชื่อทดสอบ 1",
			"address": "ที่อยู่ร้าน : ร้านผ้าคราม ABC",
			"lat": 17.213870326570724,
			"lng": 104.1013188160521,
			"image": "https://picsum.photos/id/870/200/300?grayscale&blur=2"
		},
		{
			"name": "ชื่อทดสอบ 1",
			"address": "ที่อยู่ร้าน : ร้านผ้าคราม ABC",
			"lat": 17.17050152249698,
			"lng": 104.11515646800603,
			"image": "https://picsum.photos/id/870/200/300?grayscale&blur=2"
		}
	]
}